[{"name":"Radost FX - vegetariánská restaurace/lounge","latitude":"50.075894","longitude":"14.432354","street":"Bělehradská 120","locality":"Praha 2","id":1,"openingTime":[{"days":"Pondělí - Neděle","time":": 11:00 - 00:00","id":1}]},{"name":"Vegan City","latitude":"50.087052","longitude":"14.450268","street":"Husitská 45","locality":"Praha 3","id":2,"openingTime":[{"days":"Pondělí - Sobota","time":": 10:00 - 21:00","id":2},{"days":"Neděle","time":": zavřeno ","id":3}]},{"name":"Lehká hlava","latitude":"50.084019","longitude":"14.414539","street":"Boršov 2/280","locality":"Praha 1","id":3,"openingTime":[{"days":"Pondělí - Pátek","time":": 11:30 - 23:30","id":4},{"days":"Sobota - Neděle","time":": 12:00 - 23:30","id":5}]},{"name":"Maitrea","latitude":"50.088387","longitude":"14.422448","street":"Týnská ulička 6/1064","locality":"Praha 1","id":4,"openingTime":[{"days":"Pondělí - Pátek","time":": 11:30 - 23:30","id":6},{"days":"Sobota - Neděle","time":": 12:00 - 23:30","id":7}]},{"name":"Country Life (Melantrichova)","latitude":"50.085683","longitude":"14.420516","street":"Melantrichova 15","locality":"Praha 1","id":5,"openingTime":[{"days":"Pondělí - Čtvrtek","time":": 10:30 - 19:30","id":8},{"days":"Sobota","time":": zavřeno ","id":9},{"days":"Neděle","time":": 12:00 - 18:00","id":10}]},{"name":"Govinda (Soukenická)","latitude":"50.091524","longitude":"14.431244","street":"Soukenická 27","locality":"Praha 1","id":6,"openingTime":[{"days":"Pondělí - Pátek","time":": 11:00 - 18:00","id":11},{"days":"Sobota","time":": 12:00 - 16:00","id":12},{"days":"Neděle","time":": zavřeno ","id":13}]},{"name":"Góvinda  (Palmovka)","latitude":"50.105250","longitude":"14.473760","street":"Na hrázi 5","locality":"Praha 8-Libeň","id":7,"openingTime":[{"days":"Pondělí - Pátek","time":": 11:30 - 18:00","id":14},{"days":"Sobota - Neděle","time":": zavřeno ","id":15}]},{"name":"Etno","latitude":"49.685778","longitude":"18.349480","street":"Farní 16","locality":"Frýdek-Místek","id":8,"openingTime":[{"days":"Pondělí - Pátek","time":": 11:00 - 16:00","id":16}]},{"name":"Ánanda","latitude":"50.770736","longitude":"15.057070","street":"Frýdlantská 210/12","locality":"Liberec","id":9,"openingTime":[{"days":"Pondělí - Pátek","time":": 07:15 - 18:00","id":17}]},{"name":"Country Life (Dejvice)","latitude":"50.100875","longitude":"14.398273","street":"Čs. armády 30","locality":"Praha 6","id":10,"openingTime":[{"days":"Pondělí - Pátek","time":": 08:30 - 15:00","id":18},{"days":"Sobota - Neděle","time":": zavřeno ","id":19}]},{"name":"Country Life (Jungmannova)","latitude":"50.079431","longitude":"14.422065","street":"Jungmannova 15/1","locality":"Praha 1","id":11,"openingTime":[{"days":"Pondělí - Čtvrtek","time":": 08:30 - 23:00","id":20},{"days":"Pátek","time":": 08:30 - 15:00","id":21}]},{"name":"Gopál (Nerudova)","latitude":"50.088568","longitude":"14.398584","street":"Nerudova 32","locality":"Praha 1","id":12,"openingTime":[{"days":"Pondělí - Neděle","time":": 11:00 - 21:00","id":22}]},{"name":"Beas Dhaba (Týnská)","latitude":"50.088752","longitude":"14.423710","street":"Týnská 19","locality":"Praha 1","id":13,"openingTime":[{"days":"Pondělí - Sobota","time":": 11:00 - 20:00","id":23},{"days":"Neděle","time":": 11:00 - 18:00","id":24}]},{"name":"Loving Hut (Truhlářská)","latitude":"50.090728","longitude":"14.430962","street":"Truhlářská 20","locality":"Praha 1","id":14,"openingTime":[{"days":"Pondělí - Sobota","time":": 11:00 - 21:00","id":25},{"days":"Neděle","time":": zavřeno ","id":26}]},{"name":"Beas Dhaba (Sokolovská)","latitude":"50.094374","longitude":"14.452304","street":"Sokolovská 93","locality":"Praha 8","id":15,"openingTime":[{"days":"Pondělí - Pátek","time":": 11:00 - 18:00","id":27},{"days":"Sobota - Neděle","time":": zavřeno ","id":28}]},{"name":"Loving Hut (Zborovská)","latitude":"50.076266","longitude":"14.407242","street":"Zborovská 814/19","locality":"Praha 5","id":16,"openingTime":[{"days":"Pondělí - Sobota","time":": 11:00 - 21:00","id":29},{"days":"Neděle","time":": 12:00 - 20:00","id":30}]},{"name":"Beas Dhaba (Vladislavova)","latitude":"50.081468","longitude":"14.421291","street":"Vladislavova 24","locality":"Praha 1","id":17,"openingTime":[{"days":"Pondělí - Pátek","time":": 11:00 - 21:00","id":31},{"days":"Sobota","time":": 12:00 - 20:00","id":32},{"days":"Neděle","time":": 12:00 - 18:00","id":33}]},{"name":"Beas Dhaba (Bělehradská)","latitude":"50.073326","longitude":"14.433382","street":"Bělehradská 90","locality":"Praha 2","id":18,"openingTime":[{"days":"Pondělí - Pátek","time":": 11:00 - 21:00","id":34},{"days":"Sobota","time":": 12:00 - 20:00","id":35},{"days":"Neděle","time":": 12:00 - 18:00","id":36}]},{"name":"Loving Hut (OC Nový Smíchov)","latitude":"50.073359","longitude":"14.401783","street":"Plzeňská 8","locality":"Praha 5","id":19,"openingTime":[{"days":"Pondělí - Neděle","time":": 11:00 - 22:00","id":37}]},{"name":"Loving Hut (Londýnská)","latitude":"50.072992","longitude":"14.434381","street":"Londýnská 35","locality":"Praha 2","id":20,"openingTime":[{"days":"Pondělí - Sobota","time":": 11:00 - 21:00","id":38},{"days":"Neděle","time":": zavřeno ","id":39}]},{"name":"BALARAMA","latitude":"50.078663","longitude":"14.455061","street":"Orlická 9","locality":"Praha 3","id":21,"openingTime":[{"days":"Pondělí - Pátek","time":": 11:00 - 20:00","id":40},{"days":"Sobota - Neděle","time":": zavřeno ","id":41}]},{"name":"Maranatha","latitude":"50.047494","longitude":"14.455217","street":"Vyskočilova 2","locality":"Praha 4","id":22,"openingTime":[{"days":"Pondělí - Čtvrtek","time":": 11:00 - 19:00","id":42},{"days":"Pátek","time":": 11:00 - 15:00","id":43},{"days":"Sobota - Neděle","time":": zavřeno ","id":44}]},{"name":"Zelená kuchyně","latitude":"50.067985","longitude":"14.420620","street":"Svobodova 11","locality":"Praha 2 - Albertov","id":23,"openingTime":[{"days":"Pondělí - Pátek","time":": 11:00 - 19:00","id":45},{"days":"Sobota - Neděle","time":": zavřeno ","id":46}]},{"name":"Golden Tikka (Kateřinská)","latitude":"50.075188","longitude":"14.428423","street":"Kateřinská 42","locality":"Praha 2","id":24,"openingTime":[{"days":"Pondělí - Pátek","time":": 11:30 - 23:00","id":47},{"days":"Sobota - Neděle","time":": 16:00 - 23:00","id":48}]},{"name":"Golden Tikka (Konviktská)","latitude":"50.083502","longitude":"14.416483","street":"Konviktská 9","locality":"Praha 1","id":25,"openingTime":[{"days":"Pondělí - Pátek","time":": 11:00 - 23:00","id":49},{"days":"Sobota - Neděle","time":": 16:00 - 23:00","id":50}]},{"name":"GOVINDA (Olomouc)","latitude":"49.592402","longitude":"17.250609","street":"Pavelčákova 5/13","locality":"Olomouc","id":26,"openingTime":[{"days":"Pondělí - Pátek","time":": 11:00 - 15:30","id":51},{"days":"Sobota - Neděle","time":": zavřeno ","id":52}]},{"name":"Mlsná kavka","latitude":"50.092011","longitude":"14.441678","street":"Sokolovská 327/29","locality":"Praha 8","id":27,"openingTime":[{"days":"Pondělí - Sobota","time":": 11:30 - 23:00","id":53},{"days":"Neděle","time":": 11:00 - 23:00","id":54}]},{"name":"Burfi","latitude":"49.833482","longitude":"18.291301","street":"Vojanova 1a","locality":"Ostrava","id":28,"openingTime":[{"days":"Pondělí - Pátek","time":": 11:00 - 18:00","id":55},{"days":"Sobota - Neděle","time":": zavřeno ","id":56}]},{"name":"Laibon","latitude":"48.811350","longitude":"14.315939","street":"Parkán 105","locality":"Český Krumlov","id":29,"openingTime":[{"days":"Pondělí - Neděle","time":": 11:00 - 21:00","id":57}]},{"name":"Zelená jídelna","latitude":"50.625143","longitude":"15.611885","street":"Krkonošská 27","locality":"Vrchlabí","id":30,"openingTime":[{"days":"Pondělí - Pátek","time":": 11:00 - 23:00","id":58}]},{"name":"Venezia","latitude":"49.598364","longitude":"18.145408","street":"Štefánikova 1158","locality":"Kopřivnice","id":31,"openingTime":[{"days":"Pondělí - Pátek","time":": 10:00 - 17:30","id":59},{"days":"Sobota - Neděle","time":": 10:30 : zavřeno","id":60}]},{"name":"Jídelna Vegetka","latitude":"49.743847","longitude":"13.374354","street":"Americká 13","locality":"Plzeň","id":32,"openingTime":[{"days":"Pondělí - Pátek","time":": 07:30 - 18:00","id":61},{"days":"Sobota - Neděle","time":": zavřeno ","id":62}]},{"name":"Vegetariánská jídelna","latitude":"49.299491","longitude":"17.392881","street":"Velké náměstí 40","locality":"Kroměříž","id":33,"openingTime":[{"days":"Pondělí - Pátek","time":": 07:00 - 14:30","id":63},{"days":"Sobota - Neděle","time":": zavřeno ","id":64}]},{"name":"Prašád","latitude":"49.223983","longitude":"17.657898","street":"Vavrečkova 5262","locality":"Zlín","id":34,"openingTime":[{"days":"Pondělí - Pátek","time":": 10:30 - 16:00","id":65},{"days":"Sobota","time":": 11:30 - 14:00","id":66},{"days":"Neděle","time":": zavřeno ","id":67}]},{"name":"Vegetka","latitude":"50.098767","longitude":"14.397328","street":"Kafkova 16","locality":"Praha 6","id":35,"openingTime":[{"days":"Pondělí - Pátek","time":": 10:30 - 21:00","id":68},{"days":"Sobota","time":": 11:00 - 21:00","id":69},{"days":"Neděle","time":": zavřeno ","id":70}]},{"name":"Safír (OC Nový Smíchov)","latitude":"50.072902","longitude":"14.402055","street":"Plzeňská 8","locality":"Praha 5","id":36,"openingTime":[{"days":"Pondělí - Neděle","time":": 09:00 - 21:00","id":71}]},{"name":"Safír (DBK Budějovická)","latitude":"50.043886","longitude":"14.449305","street":"Budějovická 64","locality":"Praha 4","id":37,"openingTime":[{"days":"Pondělí - Neděle","time":": 09:00 - 21:00","id":72}]},{"name":"Safír (Arkády Pankrác)","latitude":"50.051155","longitude":"14.439096","street":"Na Pankráci 86","locality":"Praha 4","id":38,"openingTime":[{"days":"Pondělí - Neděle","time":": 09:00 - 21:00","id":73}]},{"name":"Na Věčnosti","latitude":"48.854413","longitude":"16.047550","street":"Velká Mikulášská 463/11","locality":"Znojmo","id":39,"openingTime":[{"days":"Pondělí - Čtvrtek","time":": 10:30 - 22:00","id":74},{"days":"Pátek","time":": 10:30 - 00:00","id":75},{"days":"Sobota","time":": 11:00 - 00:00","id":76},{"days":"Neděle","time":": 11:00 - 22:00","id":77}]},{"name":"Kavárna Sicily","latitude":"50.085875","longitude":"14.429855","street":"Senovážné náměstí 2","locality":"Praha 1","id":40,"openingTime":[{"days":"Pondělí - Pátek","time":": 08:30 - 22:00","id":78},{"days":"Sobota - Neděle","time":": zavřeno ","id":79}]},{"name":"Felfella - Galerie Harfa","latitude":"50.103909","longitude":"14.490801","street":"Českomoravská 2420/15a","locality":"Praha 9","id":41,"openingTime":[{"days":"Pondělí - Neděle","time":": 09:00 - 21:00","id":80}]},{"name":"Restaurace Podolka","latitude":"50.058983","longitude":"14.418446","street":"Podolské nábřeží - Přístav 1","locality":"Praha 4 - Podolí","id":42,"openingTime":[{"days":"Pondělí - Neděle","time":": 11:00 - 23:00","id":81}]},{"name":"Restaurace zdravého životního stylu","latitude":"49.399518","longitude":"15.589344","street":"nám.Svobody 11","locality":"Jihlava","id":43,"openingTime":[{"days":"Pondělí - Pátek","time":": 10:30 - 14:00","id":82}]},{"name":"Restaurace Špalda","latitude":"50.036829","longitude":"15.774097","street":"třída Míru č.p. 64","locality":"Pardubice","id":44,"openingTime":[{"days":"Pondělí - Pátek","time":": 11:00 - 23:00","id":83}]},{"name":"Restaurace Zahrada","latitude":"50.643127","longitude":"13.826710","street":"ulice 28.října 780/10","locality":"Teplice","id":45,"openingTime":[{"days":"Pondělí - Pátek","time":": 08:00 - 15:30","id":84}]},{"name":"Restaurace Losín","latitude":"50.029813","longitude":"17.037926","street":"U Papírny 9","locality":"Velké Losiny","id":46,"openingTime":[{"days":"Pondělí","time":": 11:00 - 19:00","id":85},{"days":"Úterý","time":": 11:00 - 19:00","id":86},{"days":"Středa","time":": 11:00 - 19:00","id":87},{"days":"Čtvrtek","time":": 11:00 - 19:00","id":88},{"days":"Pátek","time":": 11:00 - 21:00","id":89},{"days":"Sobota","time":": 11:00 - 21:00","id":90},{"days":"Neděle","time":": 11:00 - 19:45","id":91}]},{"name":"Haribol vegetariánská jídelna","latitude":"49.204089","longitude":"16.607205","street":"Lužánecká 4","locality":"Brno","id":47,"openingTime":[{"days":"Pondělí - Pátek","time":": 11:00 - 16:00","id":92}]},{"name":"NATURAL Písek","latitude":"49.305979","longitude":"14.150461","street":"Budovcova 105","locality":"Písek","id":48,"openingTime":[{"days":"Pondělí - Pátek","time":": 08:00 - 17:00","id":93}]},{"name":"Restaurace Barbados","latitude":"49.413933","longitude":"14.666451","street":"Vančurova 1239","locality":"Tábor","id":49,"openingTime":[{"days":"Pondělí - Pátek","time":": 10:30 - 15:00","id":94},{"days":"Sobota - Neděle","time":": zavřeno ","id":95}]},{"name":"Zdravé Žití U tří růží","latitude":"50.091315","longitude":"14.430513","street":"Soukenická 21","locality":"Praha 1","id":50,"openingTime":[{"days":"Pondělí - Pátek","time":": 08:00 - 18:00","id":96},{"days":"Sobota - Neděle","time":": zavřeno ","id":97}]},{"name":"Kupé","latitude":"49.201024","longitude":"16.600326","street":"Veveří 34","locality":"Brno","id":51,"openingTime":[{"days":"Pondělí - Čtvrtek","time":": 11:00 - 23:00","id":98},{"days":"Pátek","time":": 11:00 - 01:00","id":99},{"days":"Sobota","time":": 12:00 - 01:00","id":100},{"days":"Neděle","time":": 12:00 - 20:00","id":101}]},{"name":"Yamyam","latitude":"50.063086","longitude":"14.430044","street":"Stanice metra Vyšehrad 1670","locality":"Praha 4","id":52,"openingTime":[{"days":"Pondělí - Čtvrtek","time":": 11:00 - 23:00","id":102},{"days":"Pátek - Sobota","time":": 11:00 - 00:00","id":103},{"days":"Neděle","time":": 11:00 - 23:00","id":104}]},{"name":"Vegalite","latitude":"49.200454","longitude":"16.602550","street":"Slovákova 10","locality":"Brno","id":53,"openingTime":[{"days":"Pondělí - Pátek","time":": 11:00 - 01:00","id":105},{"days":"Sobota","time":": 16:00 - 01:00","id":106},{"days":"Neděle","time":": zavřeno ","id":107}]},{"name":"Greenbar","latitude":"49.594329","longitude":"17.252399","street":"Ztracená 321/3","locality":"Olomouc","id":54,"openingTime":[{"days":"Pondělí - Pátek","time":": 10:00 - 17:00","id":108},{"days":"Sobota - Neděle","time":": zavřeno ","id":109}]},{"name":"Indická restaurace GOA","latitude":"49.194321","longitude":"16.635342","street":"Geislerova 305/34","locality":"Brno","id":55,"openingTime":[{"days":"Pondělí","time":": 11:00 - 02:00","id":110},{"days":"Úterý - Čtvrtek","time":": 11:00 - 22:00","id":111},{"days":"Sobota - Neděle","time":": 11:00 - 22:00","id":112}]},{"name":"Jídelna Oaza","latitude":"49.200005","longitude":"16.602027","street":"Slovákova 2","locality":"Brno","id":56,"openingTime":[{"days":"Pondělí - Pátek","time":": 07:30 - 18:00","id":113}]},{"name":"Kavárna Velryba","latitude":"50.080031","longitude":"14.418382","street":"Opatovická 24","locality":"Praha 1","id":57,"openingTime":[{"days":"Pondělí - Neděle","time":": 11:00 - 00:00","id":114}]},{"name":"Vegetariánská restaurace Avatár","latitude":"49.190195","longitude":"16.595587","street":"Mendlovo náměstí 19/10","locality":"Brno","id":58,"openingTime":[{"days":"Pondělí - Sobota","time":": 11:00 - 18:00","id":115},{"days":"Sobota","time":": 11:00 - 16:00","id":116}]},{"name":"Rebio Velký Špalíček","latitude":"49.193158","longitude":"16.607518","street":"Mečová 2","locality":"Brno","id":59,"openingTime":[{"days":"Pondělí - Pátek","time":": 09:00 - 21:00","id":117},{"days":"Sobota","time":": 11:00 - 21:00","id":118},{"days":"Neděle","time":": 11:00 - 20:00","id":119}]},{"name":"Rebio Orlí","latitude":"49.194046","longitude":"16.612643","street":"Orlí 26","locality":"Brno","id":60,"openingTime":[{"days":"Pondělí - Pátek","time":": 08:00 - 19:00","id":120},{"days":"Sobota","time":": 10:00 - 15:00","id":121}]},{"name":"Rebio Holandská","latitude":"49.180287","longitude":"16.604403","street":"Holandská 1","locality":"Brno","id":61,"openingTime":[{"days":"Pondělí - Pátek","time":": 08:00 - 18:00","id":122}]},{"name":"Rebio Edisonova","latitude":"49.228600","longitude":"16.575900","street":"Edisonova 1","locality":"Brno","id":62,"openingTime":[{"days":"Pondělí - Pátek","time":": 11:00 - 14:00","id":123}]},{"name":"Jiná krajina","latitude":"50.078052","longitude":"14.422275","street":"Řeznická 4","locality":"Praha 1","id":63,"openingTime":[{"days":"Pondělí - Pátek","time":": 11:00 - 23:00","id":124},{"days":"Sobota - Neděle","time":": zavřeno ","id":125}]},{"name":"Vegetarian Bistro Satyr","latitude":"49.742544","longitude":"13.370084","street":"Kardinála Berana 24","locality":"Plzeň","id":64,"openingTime":[{"days":"Pondělí - Pátek","time":": 10:00 - 16:00","id":126}]},{"name":"Cross Bufet","latitude":"50.108179","longitude":"14.443092","street":"Plynární 1096/23","locality":"Praha 7","id":65,"openingTime":[{"days":"Pondělí - Čtvrtek","time":": 21:00 - 04:00","id":127},{"days":"Pátek - Sobota","time":": 21:00 - 05:00","id":128},{"days":"Neděle","time":": 21:00 - 00:00","id":129}]},{"name":"Cross kavárna","latitude":"50.108185","longitude":"14.443351","street":"Plynární 1096/23","locality":"Praha 7","id":66,"openingTime":[{"days":"Pondělí - Pátek","time":": 14:00 - 02:00","id":130}]},{"name":"mamacoffee Vodičkova (kavárna)","latitude":"50.078504","longitude":"14.421840","street":"Vodičkova 6","locality":"Praha","id":67,"openingTime":[{"days":"Pondělí - Pátek","time":": 08:00 - 22:00","id":131},{"days":"Sobota - Neděle","time":": 10:00 - 22:00","id":132}]},{"name":"Vegetariánská restaurace Harmonie","latitude":"49.670880","longitude":"18.678728","street":"Jablunkovská 382","locality":"Třinec","id":68,"openingTime":[{"days":"Pondělí - Pátek","time":": 10:00 - 19:30","id":133},{"days":"Sobota - Neděle","time":": zavřeno ","id":134}]},{"name":"Pakwaan","latitude":"50.098023","longitude":"14.403879","street":"Dejvická 188/6","locality":"Praha 6","id":69,"openingTime":[{"days":"Pondělí - Neděle","time":": 11:00 - 23:00","id":135}]},{"name":"Čajovna U Hrušky","latitude":"49.012297","longitude":"13.997975","street":"Velké náměstí č.p. 44","locality":"Prachatice","id":70,"openingTime":[{"days":"Pondělí - Středa","time":": 15:00 - 21:30","id":136},{"days":"Středa","time":": 15:00 - 21:30","id":137},{"days":"Čtvrtek","time":": 16:00 - 22:00","id":138},{"days":"Pátek - Sobota","time":": 15:00 - 21:30","id":139}]},{"name":"Vitalité ","latitude":"49.200725","longitude":"16.607470","street":"Lidická 5","locality":"Brno","id":71,"openingTime":[{"days":"Pondělí - Pátek","time":": 09:30 - 18:00","id":140},{"days":"Sobota","time":": 11:00 - 15:00","id":141}]},{"name":"WILD ROSE","latitude":"49.749100","longitude":"13.380238","street":"Sady 5. května 32","locality":"Plzeň","id":72,"openingTime":[{"days":"Pondělí - Pátek","time":": 11:00 - 20:00","id":142}]},{"name":"Estrella restaurant","latitude":"50.079739","longitude":"14.418261","street":"Opatovická 17","locality":"Praha 1","id":73,"openingTime":[{"days":"Pondělí - Sobota","time":": 11:30 - 22:30","id":143}]},{"name":"Čajovna jedna báseň","latitude":"50.068891","longitude":"14.435669","street":"Pod Zvonařkou 14","locality":"Praha 2","id":74,"openingTime":[{"days":"Pondělí - Neděle","time":": 13:15 - 22:30","id":144}]},{"name":"Loving Hut (OC Galerie Butovice)","latitude":"50.047484","longitude":"14.354924","street":"Radlická 117","locality":"Praha 5","id":75,"openingTime":[{"days":"Pondělí - Neděle","time":": 11:00 - 21:00","id":145}]},{"name":"City Vegetarian","latitude":"48.148565","longitude":"17.112125","street":"Obchodná 58","locality":"Bratislava","id":76,"openingTime":[{"days":"Pondělí - Pátek","time":": 11:00 - 16:00","id":146}]},{"name":"Góvinda Prešov","latitude":"48.997180","longitude":"21.240960","street":"Hlavná 70","locality":"Prešov","id":77,"openingTime":[{"days":"Pondělí - Pátek","time":": 11:00 - 16:00","id":147}]},{"name":"Svetluška","latitude":"48.310569","longitude":"18.087125","street":"Štefaniková 33","locality":"Nitra","id":78,"openingTime":[{"days":"Pondělí - Středa","time":": 10:00 - 20:00","id":148},{"days":"Čtvrtek","time":": 10:00 - 19:45","id":149},{"days":"Pátek","time":": 10:00 - 20:00","id":150},{"days":"Sobota - Neděle","time":": zavřeno ","id":151}]},{"name":"Dúšok zdravia","latitude":"49.063663","longitude":"18.921653","street":"M. R. Štefánika 24A","locality":"Martin","id":79,"openingTime":[{"days":"Pondělí - Čtvrtek","time":": 07:00 - 21:00","id":152},{"days":"Pátek","time":": 07:00 - 22:00","id":153},{"days":"Sobota","time":": 15:00 - 22:00","id":154},{"days":"Neděle","time":": 15:00 - 21:00","id":155}]},{"name":"Alfa Bio","latitude":"48.740703","longitude":"19.151471","street":"Kollárova 18","locality":"Banská Bystrica","id":80,"openingTime":[{"days":"Pondělí - Pátek","time":": 09:00 - 15:00","id":156}]},{"name":"Vegfood","latitude":"48.771456","longitude":"18.626187","street":"Matice slovenskej 14","locality":"Prievidza","id":81,"openingTime":[{"days":"Pondělí - Pátek","time":": 10:00 - 18:00","id":157}]},{"name":"Góvinda Košice","latitude":"48.726634","longitude":"21.255063","street":"Hlavná 117","locality":"Košice","id":82,"openingTime":[{"days":"Pondělí - Pátek","time":": 11:00 - 17:00","id":158}]},{"name":"Góvinda Bratislava","latitude":"48.147346","longitude":"17.110224","street":"Obchodná 30","locality":"Bratislava","id":83,"openingTime":[{"days":"Pondělí - Pátek","time":": 11:00 - 20:00","id":159},{"days":"Sobota","time":": 12:00 - 17:00","id":160}]},{"name":"Bemba","latitude":"48.169835","longitude":"17.128923","street":"Hálkova 1","locality":"Bratislava - Nové mesto","id":84,"openingTime":[{"days":"Pondělí - Sobota","time":": 10:00 - 21:00","id":161},{"days":"Neděle","time":": zavřeno ","id":162}]},{"name":"Čajovňa My a mama","latitude":"48.141383","longitude":"17.116645","street":"Šafárikovo nám. 4","locality":"Bratislava","id":85,"openingTime":[{"days":"Úterý - Pátek","time":": 13:00 - 22:00","id":163},{"days":"Sobota - Neděle","time":": 16:00 - 22:00","id":164}]},{"name":"Lucy&#039;s Vegan Food","latitude":"48.146861","longitude":"17.123392","street":"Malý trh 4121/2","locality":"Bratislava","id":86,"openingTime":[{"days":"Pondělí - Pátek","time":": 11:00 - 15:00","id":165}]},{"name":"Veggie","latitude":"48.148547","longitude":"17.112745","street":"Obchodná 66","locality":"Bratislava","id":87,"openingTime":[{"days":"Pondělí - Pátek","time":": 11:00 - 16:00","id":166}]},{"name":"Studio gurmánské makrobiotiky","latitude":"50.074837","longitude":"14.440717","street":"Sázavská 14","locality":"Praha 2","id":88,"openingTime":[{"days":"Pondělí - Pátek","time":": 11:30 - 15:00","id":167}]},{"name":"Vegetariánska reštaurácia MARTIN","latitude":"49.066939","longitude":"18.924661","street":"Štúrovo námestie 42","locality":"Martin","id":89,"openingTime":[{"days":"Pondělí - Pátek","time":": 10:00 - 17:00","id":168}]},{"name":"Secret of Raw","latitude":"50.085410","longitude":"14.441126","street":"Seifertova 13","locality":"Praha 3","id":90,"openingTime":[{"days":"Pondělí - Pátek","time":": 08:30 - 22:00","id":169},{"days":"Sobota","time":": 11:00 - 22:00","id":170},{"days":"Neděle","time":": 17:00 - 22:00","id":171}]},{"name":"Bhojan - Indická vegetariánská restaurace","latitude":"50.098893","longitude":"14.432674","street":"Milady Horákové 3","locality":"Praha 7","id":91,"openingTime":[{"days":"Pondělí - Pátek","time":": 11:00 - 19:00","id":172},{"days":"Sobota - Neděle","time":": zavřeno ","id":173}]},{"name":"Bazalka Hradec Králové","latitude":"50.211027","longitude":"15.823450","street":"K. H. Máchy 747","locality":"Hradec Králové","id":92,"openingTime":[{"days":"Pondělí - Pátek","time":": 09:00 - 17:00","id":174}]},{"name":"Vegetariánský club Gouranga","latitude":"50.084388","longitude":"14.452981","street":"Chlumova 2","locality":"Praha 3","id":93,"openingTime":[{"days":"Pondělí - Pátek","time":": 11:00 - 20:00","id":175},{"days":"Sobota","time":": 12:00 - 18:00","id":176}]},{"name":"Gája - makrobiotická jídelna","latitude":"50.410748","longitude":"14.903196","street":"Staroměstské náměstí 28","locality":"Mladá Boleslav","id":94,"openingTime":[{"days":"Pondělí - Pátek","time":": 08:00 - 17:00","id":177}]},{"name":"Čajovna u lesa","latitude":"50.081481","longitude":"14.446788","street":"Kubelíkova 10","locality":"Havířov","id":95,"openingTime":[{"days":"Pondělí","time":": 16:00 - 21:00","id":178},{"days":"Úterý - Neděle","time":": 15:00 - 22:00","id":179}]},{"name":"Green House","latitude":"48.973633","longitude":"14.473329","street":"Biskupská 3/130","locality":"České Budějovice","id":96,"openingTime":[{"days":"Pondělí - Pátek","time":": 07:00 - 15:30","id":180}]},{"name":"KIDÓ - vegetariánské bistro","latitude":"50.101688","longitude":"14.422200","street":"Smeralova 22","locality":"Praha 7","id":97,"openingTime":[{"days":"Pondělí","time":": 11:00 - 17:00","id":181},{"days":"Úterý - Sobota","time":": 11:00 - 22:00","id":182},{"days":"Neděle","time":": 11:00 - 17:00","id":183}]},{"name":"Kiwi Raw Food","latitude":"49.199002","longitude":"16.592227","street":"Gorkého 970/45","locality":"Brno","id":98,"openingTime":[{"days":"Pondělí - Pátek","time":": 10:30 - 21:00","id":184},{"days":"Sobota","time":": 10:30 - 15:00","id":185},{"days":"Neděle","time":": zavřeno ","id":186}]},{"name":"Zdravý život","latitude":"49.198611","longitude":"16.601249","street":"Jaselská 8","locality":"Brno","id":99,"openingTime":[{"days":"Pondělí - Pátek","time":": 10:30 - 18:00","id":187},{"days":"Sobota - Neděle","time":": zavřeno ","id":188}]},{"name":"Burrito Loco","latitude":"50.081303","longitude":"14.419422","street":"Spálená 43","locality":"Praha 1","id":100,"openingTime":[{"days":"Pondělí - Neděle","time":": 00:00 - 00:00","id":189}]},{"name":"Václavské bistro","latitude":"50.074700","longitude":"14.418700","street":"Karlovo náměstí 6","locality":"Praha 2","id":101,"openingTime":[{"days":"Pondělí - Pátek","time":": 07:00 - 19:00","id":190},{"days":"Sobota - Neděle","time":": 09:00 - 15:00","id":191}]},{"name":"Beas Dhaba (Pankrác)","latitude":"50.051876","longitude":"14.440433","street":"Na Pankráci 1683/127","locality":"Praha 4","id":102,"openingTime":[{"days":"Pondělí - Pátek","time":": 11:00 - 19:00","id":192},{"days":"Sobota - Neděle","time":": zavřeno ","id":193}]},{"name":"Cafe Terapie","latitude":"50.068381","longitude":"14.415558","street":"Na Hrobci 3","locality":"Praha 2","id":103,"openingTime":[{"days":"Pondělí - Pátek","time":": 10:00 - 22:00","id":194},{"days":"Sobota - Neděle","time":": zavřeno ","id":195}]},{"name":"Vegtral restaurace","latitude":"50.100868","longitude":"14.421444","street":"Čechova 12","locality":"Praha 7","id":104,"openingTime":[{"days":"Pondělí - Neděle","time":": 11:00 - 00:00","id":196}]},{"name":"Plevel","latitude":"50.071568","longitude":"14.447168","street":"Krymská 126/2","locality":"Praha 10","id":105,"openingTime":[{"days":"Pondělí - Pátek","time":": 10:00 - 22:00","id":197},{"days":"Sobota - Neděle","time":": 11:00 - 23:00","id":198}]},{"name":"Moment - bistro a kavárna","latitude":"50.076181","longitude":"14.447199","street":"Slezská 62","locality":"Praha 2","id":106,"openingTime":[{"days":"Pondělí - Pátek","time":": 07:30 - 19:00","id":199},{"days":"Sobota - Neděle","time":": zavřeno ","id":200}]},{"name":"RAW bar","latitude":"49.835893","longitude":"18.287138","street":"Čs. legií 1364/20","locality":"Ostrava","id":107,"openingTime":[{"days":"Pondělí - Pátek","time":": 09:00 - 19:00","id":201},{"days":"Sobota - Neděle","time":": zavřeno ","id":202}]},{"name":"Zdravá jídelna (Toulcův dvůr)","latitude":"50.048254","longitude":"14.520038","street":"Kubatova 32/1","locality":"Praha 15","id":108,"openingTime":[{"days":"Pondělí - Neděle","time":": 11:00 - 17:00","id":203}]},{"name":" Jídelna Esence (Vegit-Point)","latitude":"50.722838","longitude":"15.169942","street":"Soukenná 588/4","locality":"Jablonci nad Nisou","id":109,"openingTime":[{"days":"Pondělí - Pátek","time":": 09:00 - 16:00","id":204}]},{"name":"Natur Styl - bistro","latitude":"49.397523","longitude":"15.588034","street":"Škrétova 2a","locality":"Jihlava","id":110,"openingTime":[{"days":"Pondělí - Pátek","time":": 10:30 - 15:00","id":205},{"days":"Sobota - Neděle","time":": zavřeno ","id":206}]},{"name":"NATURAL Tábor","latitude":"49.413679","longitude":"14.660646","street":"Střelnická II. 229","locality":"Tábor","id":111,"openingTime":[{"days":"Pondělí - Pátek","time":": 08:00 - 17:00","id":207},{"days":"Sobota - Neděle","time":": zavřeno ","id":208}]},{"name":"Ristorante Rusticana","latitude":"49.838323","longitude":"18.292564","street":"Sokolská třída 23","locality":"Ostrava","id":112,"openingTime":[{"days":"Pondělí - Pátek","time":": 11:00 - 18:00","id":209},{"days":"Sobota - Neděle","time":": zavřeno ","id":210}]},{"name":"Oáza zdraví - Litomyšl","latitude":"49.874212","longitude":"16.309405","street":"Havlíčkova 441","locality":"Litomyšl","id":113,"openingTime":[{"days":"Pondělí - Pátek","time":": 08:00 - 16:00","id":211},{"days":"Sobota - Neděle","time":": zavřeno ","id":212}]},{"name":"Oáza zdraví - Svitavy","latitude":"49.756938","longitude":"16.467653","street":"Vojanova 145/11","locality":"Svitavy","id":114,"openingTime":[{"days":"Pondělí - Pátek","time":": 09:00 - 17:00","id":213}]},{"name":"Amrit","latitude":"49.366591","longitude":"16.645216","street":"Sukova 4","locality":"Blansko","id":115,"openingTime":[{"days":"Pondělí - Pátek","time":": 10:00 - 14:00","id":214},{"days":"Sobota - Neděle","time":": zavřeno ","id":215}]},{"name":"Ganga","latitude":"50.039015","longitude":"15.780041","street":"Pernštýnské náměstí 48","locality":"Pardubice","id":116,"openingTime":[{"days":"Pondělí - Čtvrtek","time":": 10:00 - 15:00","id":216},{"days":"Pondělí - Čtvrtek","time":": 17:00 - 22:00","id":217},{"days":"Pátek - Sobota","time":": 10:00 - 15:00","id":218},{"days":"Pátek - Sobota","time":": 17:00 - 23:00","id":219},{"days":"Neděle","time":": zavřeno ","id":220}]},{"name":"Abrahámova polévkárna","latitude":"49.198941","longitude":"17.538067","street":"K. H. Máchy 109","locality":"Otrokovice, Kvítkovice","id":117,"openingTime":[{"days":"Pondělí - Pátek","time":": 10:00 - 18:00","id":221},{"days":"Sobota - Neděle","time":": zavřeno ","id":222}]},{"name":"Klásek","latitude":"49.487601","longitude":"16.658071","street":"Antonína Trapla 1","locality":"Boskovice","id":118,"openingTime":[{"days":"Pondělí - Pátek","time":": 11:00 - 15:00","id":223},{"days":"Sobota - Neděle","time":": zavřeno ","id":224}]},{"name":"Tři ocásci (kavárna)","latitude":"49.199011","longitude":"16.593197","street":"Gorkého 37","locality":"Brno","id":119,"openingTime":[{"days":"Pondělí - Pátek","time":": 08:00 - 22:00","id":225},{"days":"Sobota - Neděle","time":": 10:00 - 22:00","id":226}]},{"name":"Zdravá jídelna Spirála","latitude":"48.976503","longitude":"14.474039","street":"Krajinská 22","locality":"České Budějovice","id":120,"openingTime":[{"days":"Pondělí - Čtvrtek","time":": 09:00 - 18:00","id":227},{"days":"Pátek","time":": 09:00 - 17:00","id":228},{"days":"Sobota - Neděle","time":": zavřeno ","id":229}]},{"name":"Jiná krajina Vršovice","latitude":"50.071249","longitude":"14.451678","street":"Kodaňská","locality":"Praha 10","id":121,"openingTime":[{"days":"Pondělí - Pátek","time":": 11:00 - 23:00","id":230},{"days":"Sobota - Neděle","time":": zavřeno ","id":231}]},{"name":"Kavárna vesmírna","latitude":"50.077791","longitude":"14.426336","street":"Ve Smečkách 5","locality":"Praha 1","id":122,"openingTime":[{"days":"Pondělí - Čtvrtek","time":": 11:30 - 20:00","id":232},{"days":"Pátek","time":": 11:30 - 15:00","id":233},{"days":"Sobota - Neděle","time":": zavřeno ","id":234}]},{"name":"GrandeVita","latitude":"50.091652","longitude":"14.446431","street":"Křižíkova 49/212","locality":"Praha 8 - Karlín","id":123,"openingTime":[{"days":"Pondělí - Pátek","time":": 09:00 - 18:00","id":235}]},{"name":"Kruh zdraví","latitude":"49.954319","longitude":"15.792377","street":"Poděbradova 79","locality":"Chrudim","id":124,"openingTime":[{"days":"Pondělí - Pátek","time":": 07:30 - 18:30","id":236},{"days":"Sobota - Neděle","time":": zavřeno ","id":237}]},{"name":"mr. Hau","latitude":"50.071946","longitude":"14.431942","street":"Koubkova 1726/8","locality":"Praha 2","id":125,"openingTime":[{"days":"Pondělí - Pátek","time":": 11:00 - 21:00","id":238},{"days":"Sobota","time":": 12:00 - 21:00","id":239},{"days":"Neděle","time":": zavřeno ","id":240}]},{"name":"Jelica","latitude":"50.048162","longitude":"14.408383","street":"Na Zlíchově 260/35","locality":"Praha 5","id":126,"openingTime":[{"days":"Pondělí - Neděle","time":": 11:30 - 22:00","id":241}]},{"name":"Baobab ","latitude":"49.261678","longitude":"13.898871","street":"Bavorova 20","locality":"Strakonice","id":127,"openingTime":[{"days":"Pondělí - Pátek","time":": 11:00 - 20:00","id":242},{"days":"Sobota","time":": 11:30 - 20:00","id":243}]},{"name":"Thai Box Food","latitude":"50.088501","longitude":"14.426877","street":"Králodvorská/Jakubská","locality":"Praha 1","id":128,"openingTime":[{"days":"Pondělí - Pátek","time":": 11:00 - 19:15","id":244},{"days":"Sobota - Neděle","time":": zavřeno ","id":245}]},{"name":"GOOD FIVE","latitude":"48.127860","longitude":"17.094330","street":"Rusovská cesta 3662/5","locality":"Bratislava","id":129,"openingTime":[{"days":"Pondělí - Pátek","time":": 09:00 - 22:00","id":246},{"days":"Sobota - Neděle","time":": 11:00 - 22:00","id":247}]},{"name":"Pizza na Rohu","latitude":"49.000610","longitude":"21.239590","street":"Kováčska 1","locality":"Prešov","id":130,"openingTime":[{"days":"Pondělí - Středa","time":": 10:00 - 22:00","id":248},{"days":"Čtvrtek","time":": 10:00 - 23:00","id":249},{"days":"Pátek","time":": 10:00 - 01:00","id":250},{"days":"Sobota","time":": 12:00 - 23:00","id":251},{"days":"Neděle","time":": zavřeno ","id":252}]},{"name":"Pizza Letná","latitude":"50.100035","longitude":"14.428113","street":"Haškova 3","locality":"Praha 7","id":131,"openingTime":[{"days":"Neděle - Čtvrtek","time":": 10:30 - 22:00","id":253},{"days":"Pátek - Sobota","time":": 10:30 - 01:00","id":254}]},{"name":"Ollies bistro","latitude":"49.812304","longitude":"18.273663","street":"Výstavní 2968/108","locality":"Ostrava-Vítkovice","id":132,"openingTime":[{"days":"Pondělí - Neděle","time":": 07:30 - 20:00","id":255}]},{"name":"Masala Ghar (centrum)","latitude":"49.746292","longitude":"13.377221","street":"náměstí Republiky 21","locality":"Plzeň","id":133,"openingTime":[{"days":"Pondělí - Pátek","time":": 10:00 - 22:00","id":256},{"days":"Sobota","time":": 12:00 - 22:00","id":257},{"days":"Neděle","time":": zavřeno ","id":258}]},{"name":"CARPE DIEM PIZZERIA &amp; RISTORANTE","latitude":"49.201445","longitude":"16.610443","street":"Třída kapitána Jaroše 13","locality":"Brno","id":134,"openingTime":[{"days":"Pondělí - Čtvrtek","time":": 10:30 - 22:00","id":259},{"days":"Pátek","time":": 10:30 - 00:00","id":260},{"days":"Sobota","time":": 12:00 - 00:00","id":261},{"days":"Neděle","time":": 17:00 - 22:00","id":262}]},{"name":"Vegan Bar","latitude":"48.143682","longitude":"17.120928","street":"Tovarenska 9","locality":"Bratislava","id":135,"openingTime":[{"days":"Pondělí - Pátek","time":": 11:00 - 20:00","id":263},{"days":"Sobota - Neděle","time":": zavřeno ","id":264}]},{"name":"Restaurace La Strada","latitude":"49.203417","longitude":"16.599653","street":"Kounicova 53","locality":"Brno","id":136,"openingTime":[{"days":"Pondělí - Čtvrtek","time":": 10:30 - 23:00","id":265},{"days":"Pátek - Sobota","time":": 11:30 - 00:00","id":266},{"days":"Neděle","time":": 11:00 - 23:00","id":267}]},{"name":"Pizzerie Manna","latitude":"50.094456","longitude":"14.457450","street":"Urxova 5","locality":"Praha 8 - Karlín","id":137,"openingTime":[{"days":"Pondělí - Pátek","time":": 10:30 - 23:30","id":268},{"days":"Sobota - Neděle","time":": 11:30 - 23:30","id":269}]},{"name":"AJVEGA","latitude":"48.720414","longitude":"21.260322","street":"Orlia 10","locality":"Košice","id":138,"openingTime":[{"days":"Pondělí - Pátek","time":": 10:00 - 22:00","id":270},{"days":"Sobota - Neděle","time":": 11:00 - 22:00","id":271}]},{"name":"U průmyslovky","latitude":"49.202496","longitude":"16.597529","street":"Jana Uhra 1","locality":"Brno","id":139,"openingTime":[{"days":"Pondělí - Neděle","time":": 11:00 - 00:00","id":272}]},{"name":"Restaurace na Vyhlídce","latitude":"49.222902","longitude":"16.633261","street":"Soběšická 154","locality":"Brno","id":140,"openingTime":[{"days":"Pondělí - Čtvrtek","time":": 11:00 - 23:30","id":273},{"days":"Pátek - Sobota","time":": 11:00 - 00:00","id":274},{"days":"Neděle","time":": 11:00 - 22:00","id":275}]},{"name":"Loving Hut (Dukelských hrdinů)","latitude":"50.099912","longitude":"14.433515","street":"Dukelských hrdinů 18","locality":"Praha 7","id":141,"openingTime":[{"days":"Pondělí - Sobota","time":": 11:00 - 21:00","id":276}]},{"name":"LoVeg","latitude":"50.088575","longitude":"14.398252","street":"Nerudova 36","locality":"Praha 1","id":142,"openingTime":[{"days":"Pondělí - Neděle","time":": 11:00 - 22:00","id":277}]},{"name":"Indická restaurace Annapurna","latitude":"49.192144","longitude":"16.612139","street":"Josefská 427/14","locality":"Brno","id":143,"openingTime":[{"days":"Pondělí - Pátek","time":": 10:30 - 22:30","id":278},{"days":"Pátek","time":": 10:30 - 23:00","id":279},{"days":"Sobota","time":": 12:00 - 23:00","id":280},{"days":"Neděle","time":": 12:00 - 22:30","id":281}]},{"name":"Pizza Halló","latitude":"49.221522","longitude":"17.665500","street":"nám. T. G. Masaryka 588","locality":"Zlín","id":144,"openingTime":[{"days":"Pondělí - Pátek","time":": 10:00 - 21:00","id":282},{"days":"Sobota - Neděle","time":": zavřeno ","id":283}]},{"name":"Pizzeria Via Grande","latitude":"49.078960","longitude":"18.927830","street":"Jilemnického 47","locality":"Martin","id":145,"openingTime":[{"days":"Pondělí - Čtvrtek","time":": 08:30 - 22:00","id":284},{"days":"Pátek","time":": 08:30 - 00:00","id":285},{"days":"Sobota","time":": 11:00 - 00:00","id":286},{"days":"Neděle","time":": 11:00 - 22:00","id":287}]},{"name":"Loving Hut (Neklanova)","latitude":"50.066388","longitude":"14.421032","street":"Neklanova 30","locality":"Praha 2","id":146,"openingTime":[{"days":"Pondělí - Pátek","time":": 10:30 - 21:00","id":288},{"days":"Sobota","time":": 11:00 - 21:00","id":289},{"days":"Neděle","time":": zavřeno ","id":290}]},{"name":"Yak Yeti","latitude":"50.074985","longitude":"14.446074","street":"Chodská 22","locality":"Praha 2","id":147,"openingTime":[{"days":"Pondělí - Sobota","time":": 11:00 - 22:00","id":291}]},{"name":"Zdravé bistro","latitude":"50.146232","longitude":"14.098068","street":"Havířská 1414","locality":"Kladno","id":148,"openingTime":[{"days":"Pondělí - Pátek","time":": 07:30 - 17:00","id":292},{"days":"Sobota - Neděle","time":" ","id":293}]},{"name":"Ananta (Gopál)","latitude":"50.077281","longitude":"14.405364","street":"Elišky Peškové 6","locality":"Praha 5","id":149,"openingTime":[{"days":"Pondělí - Pátek","time":": 11:00 - 21:00","id":294}]},{"name":"Beas Dhaba (Na Poříčí)","latitude":"50.089256","longitude":"14.434228","street":"Na Poříčí 26","locality":"Praha 1","id":150,"openingTime":[{"days":"Pondělí - Pátek","time":": 09:00 - 23:00","id":295},{"days":"Sobota","time":": 12:00 - 20:00","id":296}]},{"name":"Vegetariánská jídelna U Dýně","latitude":"49.688062","longitude":"14.010768","street":"Pražská 139","locality":"Příbram","id":151,"openingTime":[{"days":"Pondělí - Pátek","time":": 07:30 - 14:30","id":297},{"days":"Sobota - Neděle","time":": zavřeno ","id":298}]},{"name":"Slunovrat","latitude":"49.688004","longitude":"14.011548","street":"V Brance 47","locality":"Příbram","id":152,"openingTime":[{"days":"Pondělí - Pátek","time":": 08:00 - 14:00","id":299},{"days":"Sobota - Neděle","time":": zavřeno ","id":300}]},{"name":"Akce Klubu 007 Strahov","latitude":"50.081340","longitude":"14.392571","street":"Chaloupeckého 7","locality":"Praha 6","id":153,"openingTime":[{"days":"Pondělí - Pátek","time":": 11:00 - 23:00","id":301}]},{"name":"pizzabar Těsně Vedle","latitude":"49.200575","longitude":"16.614000","street":"Příkop 27/2a","locality":"Brno","id":154,"openingTime":[{"days":"Pondělí - Čtvrtek","time":": 12:00 - 23:30","id":302},{"days":"Pátek","time":": 12:00 - 01:00","id":303},{"days":"Sobota","time":": 14:00 - 00:00","id":304},{"days":"Neděle","time":": 14:00 - 23:00","id":305}]},{"name":"la Botte","latitude":"49.222973","longitude":"16.595013","street":"Palackého třída 285/47","locality":"Brno - Královo Pole","id":155,"openingTime":[{"days":"Pondělí - Neděle","time":": 11:00 - 00:00","id":306}]},{"name":"Čajovna Setkání Kolín","latitude":"50.027799","longitude":"15.199289","street":"na Hradbách 152","locality":"Kolín 1","id":156,"openingTime":[{"days":"Sobota - Pondělí","time":": 14:00 - 22:00","id":307},{"days":"Úterý - Pátek","time":": 11:00 - 22:00","id":308}]},{"name":"Pizza Kunětice","latitude":"50.070294","longitude":"15.826226","street":"Kunětice 4","locality":"Sezemice","id":157,"openingTime":[{"days":"Neděle - Pondělí","time":": 11:00 - 21:00","id":309},{"days":"Úterý","time":": zavřeno ","id":310},{"days":"Středa - Pátek","time":": 11:00 - 21:00","id":311},{"days":"Sobota","time":": 11:00 - 22:00","id":312}]},{"name":"Rawcha","latitude":"50.088918","longitude":"14.430679","street":"Na poříčí 8","locality":"Praha 1","id":158,"openingTime":[{"days":"Pondělí - Sobota","time":": 11:00 - 22:00","id":313},{"days":"Neděle","time":": 16:00 - 22:00","id":314}]},{"name":"Zelená jídelna Rosnička","latitude":"49.954791","longitude":"16.158348","street":"Pražská 251","locality":"Vysoké Mýto","id":159,"openingTime":[{"days":"Pondělí - Pátek","time":": 10:30 - 14:00","id":315}]},{"name":"Lucky´s Vege bistro","latitude":"49.217152","longitude":"15.876778","street":"Tiché náměstí 5/3","locality":"Třebíč","id":160,"openingTime":[{"days":"Pondělí - Pátek","time":": 10:30 - 15:00","id":316}]},{"name":"Vitální restaurace","latitude":"49.658699","longitude":"18.696147","street":"Vendryně 1017","locality":"Vendryně a Bystřice","id":161,"openingTime":[{"days":"Pondělí - Pátek","time":": 10:00 - 22:00","id":317},{"days":"Sobota","time":": 10:00 - 23:00","id":318},{"days":"Neděle","time":": 10:00 - 22:00","id":319}]},{"name":"Pizza4you (rozvoz)","latitude":"50.052166","longitude":"14.529145","street":"Hostivařská 224/28","locality":"Praha 15","id":163,"openingTime":[{"days":"Pondělí - Neděle","time":": 11:00 - 22:00","id":320}]},{"name":"Chacharova pizza (Ostrava - Poruba Sever) ","latitude":"49.844024","longitude":"18.156804","street":"Ludvíka Podéště 1974/25","locality":"Ostrava - Poruba","id":164,"openingTime":[{"days":"Pondělí - Neděle","time":": 08:00 - 00:00","id":321}]},{"name":"Chacharova pizza (Ostrava - Dubina)","latitude":"49.772384","longitude":"18.254002","street":"Václava Jiřikovského 285/46","locality":"Ostrava-Dubina","id":165,"openingTime":[{"days":"Pondělí - Neděle","time":": 08:00 - 00:00","id":322}]},{"name":"Chacharova pizza (Ostrava - Hrabová)","latitude":"49.769811","longitude":"18.288456","street":"Paskovská 217/183","locality":"Ostrava-Hrabová","id":166,"openingTime":[{"days":"Pondělí - Neděle","time":": 08:00 - 00:00","id":323}]},{"name":"Chacharova pizza (Ostrava - Slezská)","latitude":"49.839472","longitude":"18.297102","street":"Ferdinanda Koláře 282/3","locality":"Slezská Ostrava","id":167,"openingTime":[{"days":"Pondělí - Neděle","time":": 08:00 - 00:00","id":324}]},{"name":"Chacharova pizza (Ostrava - Výškovice)","latitude":"49.782633","longitude":"18.222167","street":"Břustkova 670/20","locality":"Ostrava - Výškovice","id":168,"openingTime":[{"days":"Pondělí - Neděle","time":": 08:00 - 00:00","id":325}]},{"name":"Chacharova pizza (Havířov)","latitude":"49.796957","longitude":"18.397694","street":"Marie Pujmanové 1124/28","locality":"Havířov - Šumbark","id":169,"openingTime":[{"days":"Pondělí - Čtvrtek","time":": 11:00 - 22:00","id":326},{"days":"Pátek - Sobota","time":": 11:00 - 23:00","id":327},{"days":"Neděle","time":": 11:00 - 22:00","id":328}]},{"name":"Chacharova pizza (Ostrava - Centrum)","latitude":"49.829367","longitude":"18.276035","street":"Petra Křičky 3106/18","locality":"Moravská Ostrava","id":170,"openingTime":[{"days":"Pondělí - Neděle","time":": 08:00 - 00:00","id":329}]},{"name":"Chacharova pizza (Poruba jih)","latitude":"49.825030","longitude":"18.179014","street":"Resslova 1083/9","locality":"Ostrava-Poruba","id":171,"openingTime":[{"days":"Pondělí - Neděle","time":": 08:00 - 00:00","id":330}]},{"name":"Chacharova pizza (Zábřeh)","latitude":"49.807580","longitude":"18.235153","street":"U Hrůbků 3060/145","locality":"Ostrava - Zábřeh","id":172,"openingTime":[{"days":"Pondělí - Neděle","time":": 08:00 - 00:00","id":331}]},{"name":"Chacharova pizza (Karviná)","latitude":"49.865538","longitude":"18.552840","street":"Bratr. Veverkových 2977/3","locality":"Karviná - Hranice","id":173,"openingTime":[{"days":"Pondělí - Čtvrtek","time":": 11:00 - 22:00","id":332},{"days":"Pátek - Sobota","time":": 11:00 - 23:00","id":333},{"days":"Neděle","time":": 11:00 - 22:00","id":334}]},{"name":"Belzepub","latitude":"50.082526","longitude":"14.444382","street":"U Rajské zahrady 14","locality":"Praha 3 - Žižkov","id":174,"openingTime":[{"days":"Pondělí - Pátek","time":": 17:00 - 01:00","id":335},{"days":"Sobota","time":": 19:00 - 01:00","id":336},{"days":"Neděle","time":": zavřeno ","id":337}]},{"name":"Paňárova Pizza ","latitude":"49.728694","longitude":"13.401838","street":"Francouzská třída 1862/16","locality":"Plzeň","id":175,"openingTime":[{"days":"Pondělí - Čtvrtek","time":": 11:00 - 22:00","id":338},{"days":"Pátek - Neděle","time":": 11:00 - 00:00","id":339},{"days":"Neděle","time":": 11:00 - 22:00","id":340}]},{"name":"Peťanova pizza (Jihlava)","latitude":"49.398505","longitude":"15.583252","street":"Tolstého 23","locality":"Jihlava","id":176,"openingTime":[{"days":"Pondělí - Čtvrtek","time":": 10:30 - 22:30","id":341},{"days":"Pátek - Sobota","time":": 10:30 - 23:30","id":342},{"days":"Neděle","time":": 10:30 - 22:30","id":343}]},{"name":"Loving Hut (Radčická)","latitude":"49.749638","longitude":"13.369561","street":"Radčická 2","locality":"Plzeň","id":177,"openingTime":[{"days":"Pondělí - Neděle","time":": 10:00 - 21:00","id":344}]},{"name":"Chacharova pizza (Frýdek-Místek)","latitude":"49.688481","longitude":"18.349676","street":"Růžový pahorek 550","locality":"Frýdek-Místek","id":178,"openingTime":[{"days":"Neděle - Čtvrtek","time":": 11:00 - 22:00","id":345},{"days":"Pátek - Sobota","time":": 11:00 - 23:00","id":346}]},{"name":"Chacharova pizza (Třinec)","latitude":"49.663621","longitude":"18.681303","street":"Dukelská 993","locality":"Třinec","id":179,"openingTime":[{"days":"Neděle - Čtvrtek","time":": 11:00 - 22:30","id":347},{"days":"Pátek - Sobota","time":": 11:00 - 23:30","id":348}]},{"name":"Pepíkova kuchyně (Vysočany) ","latitude":"50.103055","longitude":"14.502798","street":"Freyova 247/13","locality":"Praha 9","id":180,"openingTime":[{"days":"Neděle - Čtvrtek","time":": 10:45 - 22:30","id":349},{"days":"Pátek - Sobota","time":": 10:45 - 23:30","id":350}]},{"name":"Pepíkova kuchyně (Modřany)","latitude":"50.013731","longitude":"14.409919","street":"Lysinská 42","locality":"Praha – Modřany","id":181,"openingTime":[{"days":"Neděle - Čtvrtek","time":": 10:45 - 22:30","id":351},{"days":"Pátek - Sobota","time":": 10:45 - 23:30","id":352}]},{"name":" Mechováčkova pizza (Hradec Králové) ","latitude":"50.186937","longitude":"15.836900","street":"Freyova 247/13","locality":"Hradec Králové","id":182,"openingTime":[{"days":"Neděle - Čtvrtek","time":": 10:45 - 22:45","id":353},{"days":"Pátek - Sobota","time":": 10:45 - 23:45","id":354}]},{"name":"Parťákova pizza (Liberec)","latitude":"50.760077","longitude":"15.070243","street":"Broumovská 843/11","locality":"Liberec","id":183,"openingTime":[{"days":"Neděle - Čtvrtek","time":": 11:00 - 23:00","id":355},{"days":"Pátek","time":": 10:00 - 00:00","id":356},{"days":"Sobota","time":": 11:00 - 00:00","id":357}]},{"name":"Maníkova pizza (Brno západ)","latitude":"49.244089","longitude":"16.585624","street":"Měříčkova 18","locality":"Brno – Řečkovice","id":184,"openingTime":[{"days":"Neděle - Čtvrtek","time":": 10:00 - 23:00","id":358},{"days":"Pátek - Sobota","time":": 10:00 - 00:00","id":359}]},{"name":"Maníkova pizza (Brno jih)","latitude":"49.157632","longitude":"16.645410","street":"Kaštanová 62","locality":"Brno","id":185,"openingTime":[{"days":"Neděle - Čtvrtek","time":": 10:00 - 23:00","id":360},{"days":"Pátek - Sobota","time":": 10:00 - 00:00","id":361}]},{"name":"Maníkova pizza (Brno východ)","latitude":"49.228439","longitude":"16.618223","street":"Fillova 1","locality":"Brno – Lesná","id":186,"openingTime":[{"days":"Neděle - Čtvrtek","time":": 10:00 - 23:00","id":362},{"days":"Pátek - Sobota","time":": 10:00 - 00:00","id":363}]},{"name":"Chacharova pizza (Hlučín)","latitude":"49.903972","longitude":"18.191479","street":"Hornická 1","locality":"Hlučín","id":187,"openingTime":[{"days":"Pondělí - Neděle","time":": 10:00 - 22:00","id":364}]},{"name":"Ogarova pizza (Zlín)","latitude":"49.221330","longitude":"17.662946","street":"Nám.T.G.Masaryka 1335","locality":"Zlín","id":188,"openingTime":[{"days":"Neděle - Čtvrtek","time":": 10:00 - 23:00","id":365},{"days":"Pátek - Sobota","time":": 10:00 - 00:00","id":366}]},{"name":"Pepinova pizza (Přerov)","latitude":"49.447967","longitude":"17.445715","street":"Husova 8","locality":"Přerov","id":189,"openingTime":[{"days":"Neděle - Čtvrtek","time":": 10:00 - 23:00","id":367},{"days":"Pátek - Sobota","time":": 10:00 - 00:00","id":368}]},{"name":"Pepinova pizza (Kroměříž)","latitude":"49.294088","longitude":"17.382327","street":"Havlíčkova 593","locality":"Kroměříž","id":190,"openingTime":[{"days":"Neděle - Čtvrtek","time":": 09:45 - 21:45","id":369},{"days":"Pátek - Sobota","time":": 09:45 - 22:45","id":370}]},{"name":"Pepinova pizza (Holešov)","latitude":"49.329990","longitude":"17.583299","street":"Masarykova 1421","locality":"Holešov","id":191,"openingTime":[{"days":"Pondělí","time":": 10:00 - 03:00","id":371},{"days":"Úterý - Pátek","time":": 10:00 - 23:00","id":372},{"days":"Sobota","time":": 11:00 - 23:00","id":373},{"days":"Neděle","time":": 11:00 - 22:00","id":374}]},{"name":"Pepinova pizza (Prostějov)","latitude":"49.465389","longitude":"17.112516","street":"Tylova 1507/52","locality":"Prostějov","id":192,"openingTime":[{"days":"Neděle - Čtvrtek","time":": 10:30 - 21:45","id":375},{"days":"Pátek - Sobota","time":": 10:30 - 22:45","id":376}]},{"name":"Chacharova pizza (Jablunkov)","latitude":"49.569611","longitude":"18.757529","street":"Alej Míru 478","locality":"Jablunkov","id":193,"openingTime":[{"days":"Pondělí - Neděle","time":": 11:00 - 22:00","id":377},{"days":"Pátek - Sobota","time":": 11:00 - 23:00","id":378}]},{"name":"Junk Food Café","latitude":"49.191126","longitude":"16.603418","street":"Anenská 4","locality":"Brno","id":194,"openingTime":[{"days":"Pondělí - Sobota","time":": 11:00 - 00:00","id":379},{"days":"Neděle","time":": zavřeno ","id":380}]},{"name":"Chacharova pizza (Český Těšín)","latitude":"49.719242","longitude":"18.591659","street":"Jablunkovská 863/72","locality":"Český Těšín","id":195,"openingTime":[{"days":"Neděle - Čtvrtek","time":": 11:00 - 22:00","id":381},{"days":"Pátek - Sobota","time":": 11:00 - 23:00","id":382}]},{"name":"Ristorante &amp; Pizzeria Leonessa ","latitude":"49.196063","longitude":"16.612338","street":"Sukova 2","locality":"Brno","id":196,"openingTime":[{"days":"Pondělí - Čtvrtek","time":": 11:30 - 23:00","id":383},{"days":"Pátek","time":": 11:30 - 00:00","id":384},{"days":"Sobota","time":": 12:00 - 00:00","id":385},{"days":"Neděle","time":": zavřeno ","id":386}]},{"name":"Dobromysl","latitude":"50.211543","longitude":"15.815231","street":"Gočárova třída 1229/41","locality":"Hradec Králové","id":197,"openingTime":[{"days":"Pondělí - Pátek","time":": 08:00 - 22:00","id":387},{"days":"Sobota - Neděle","time":": zavřeno ","id":388}]},{"name":"Zdravá Bašta","latitude":"50.208526","longitude":"15.831554","street":"Velké náměstí 41/50","locality":"Hradec Králové","id":198,"openingTime":[{"days":"Pondělí - Pátek","time":": 08:00 - 14:00","id":389},{"days":"Sobota - Neděle","time":": zavřeno ","id":390}]},{"name":"Vege Bistro Čekárna","latitude":"50.660285","longitude":"14.044821","street":"U nádraží 1300/1","locality":"Ústí nad Labem","id":199,"openingTime":[{"days":"Pondělí - Pátek","time":": 08:30 - 18:00","id":391}]},{"name":"Vega menu (rozvoz)","latitude":"49.597319","longitude":"17.266830","street":"Komenského 22","locality":"Olomouc","id":200,"openingTime":[{"days":"Pondělí - Pátek","time":": 11:00 - 13:00","id":392},{"days":"Sobota - Neděle","time":": zavřeno ","id":393}]},{"name":"Malbo Caffé","latitude":"48.720233","longitude":"21.232415","street":"Kysúcka 16","locality":"Košice","id":201,"openingTime":[{"days":"Pondělí - Čtvrtek","time":": 11:00 - 23:00","id":394},{"days":"Pátek","time":": 11:00 - 02:00","id":395},{"days":"Sobota - Neděle","time":": 13:00 - 23:00","id":396}]},{"name":"Tulasi","latitude":"49.688219","longitude":"14.013701","street":"Dlouhá 166","locality":"Příbram","id":202,"openingTime":[{"days":"Pondělí","time":": 11:00 - 17:30","id":397},{"days":"Úterý - Čtvrtek","time":": 11:00 - 21:00","id":398},{"days":"Pátek","time":": 11:00 - 21:30","id":399},{"days":"Sobota - Neděle","time":": zavřeno ","id":400}]},{"name":"Špizza (Boskovice)","latitude":"49.491493","longitude":"16.641932","street":"Rovná 2460/4","locality":"Boskovice","id":203,"openingTime":[{"days":"Pondělí - Neděle","time":": 09:00 - 20:00","id":401}]},{"name":"Mates - jídelna","latitude":"50.561323","longitude":"15.911108","street":"Svatojanské náměstí 47","locality":"Trutnov","id":204,"openingTime":[{"days":"Pondělí - Pátek","time":": 10:30 - 13:30","id":402}]},{"name":"Špizza (Uherský Brod)","latitude":"49.021599","longitude":"17.641996","street":"Vlčnovská 2514","locality":"Uherský Brod","id":205,"openingTime":[{"days":"Pondělí - Neděle","time":": 09:00 - 21:00","id":403}]},{"name":"Špizza (Vyškov)","latitude":"49.274824","longitude":"16.994208","street":"Cukrovarská 492/4","locality":"Vyškov","id":206,"openingTime":[{"days":"Pondělí - Čtvrtek","time":": 09:00 - 21:00","id":404},{"days":"Pátek - Sobota","time":": 09:00 - 01:00","id":405}]},{"name":"Flavours","latitude":"49.196414","longitude":"16.609147","street":"Běhounská 110/12","locality":"Brno","id":207,"openingTime":[{"days":"Pondělí - Sobota","time":": 11:00 - 23:00","id":406},{"days":"Neděle","time":": 12:00 - 22:00","id":407}]},{"name":"Krmelec Vršky","latitude":"50.073711","longitude":"14.476506","street":"Ruská 152/777","locality":"Praha 10","id":208,"openingTime":[{"days":"Pondělí - Čtvrtek","time":": 10:00 - 16:00","id":408},{"days":"Pátek","time":": 10:00 - 14:30","id":409}]},{"name":"Ojero","latitude":"49.835210","longitude":"18.284096","street":"Poděbradova 23","locality":"Ostrava","id":209,"openingTime":[{"days":"Pondělí - Čtvrtek","time":": 11:00 - 22:00","id":410},{"days":"Pátek","time":": 11:00 - 02:00","id":411},{"days":"Sobota","time":": 13:00 - 02:00","id":412},{"days":"Neděle","time":": zavřeno ","id":413}]},{"name":"Vegoš (donáška)","latitude":"48.441250","longitude":"17.030475","street":"Dukelskych hrdinov 47","locality":"Malacky","id":210,"openingTime":[{"days":"Pondělí - Pátek","time":": 11:00 - 13:00","id":414},{"days":"Sobota - Neděle","time":": zavřeno ","id":415}]},{"name":"Huy Vege","latitude":"48.145995","longitude":"17.112258","street":"Kolárska 8","locality":"Bratislava","id":211,"openingTime":[{"days":"Pondělí - Pátek","time":": 10:00 - 19:00","id":416},{"days":"Sobota","time":": 10:00 - 16:00","id":417},{"days":"Neděle","time":": zavřeno ","id":418}]},{"name":"Reštaurácia Vegetarián","latitude":"48.943449","longitude":"20.567957","street":"Zimná 62","locality":"Spišská Nová Ves","id":212,"openingTime":[{"days":"Pondělí - Pátek","time":": 10:30 - 15:30","id":419},{"days":"Sobota - Neděle","time":": zavřeno ","id":420}]},{"name":"Morello pizza ","latitude":"49.447719","longitude":"17.448701","street":"Kramářova 19","locality":"Přerov","id":213,"openingTime":[{"days":"Pondělí - Čtvrtek","time":": 10:00 - 23:00","id":421},{"days":"Pátek","time":": 10:00 - 00:00","id":422},{"days":"Sobota","time":": 11:00 - 00:00","id":423},{"days":"Neděle","time":": 11:00 - 22:00","id":424}]},{"name":"Penzion na 15. poledníku","latitude":"49.144647","longitude":"15.001997","street":"Kostelní 76","locality":"Jindřichův Hradec","id":214,"openingTime":[{"days":"Pondělí - Neděle","time":": 11:00 - 22:00","id":425}]},{"name":"FAIR","latitude":"49.852734","longitude":"18.547573","street":"Fryštátská 174","locality":"Karviná, Fryštát","id":215,"openingTime":[{"days":"Pondělí - Čtvrtek","time":": 07:30 - 20:00","id":426},{"days":"Pátek","time":": 07:30 - 21:00","id":427},{"days":"Sobota","time":": 08:30 - 21:00","id":428},{"days":"Neděle","time":": zavřeno ","id":429}]},{"name":"PURO","latitude":"50.077017","longitude":"14.440943","street":"Vinohradská 2030/44","locality":"Praha 2","id":216,"openingTime":[{"days":"Pondělí","time":": 11:00 - 20:00","id":430},{"days":"Úterý - Pátek","time":": 08:00 - 20:00","id":431},{"days":"Sobota - Neděle","time":": zavřeno ","id":432}]},{"name":"Vegetbar","latitude":"49.227481","longitude":"17.671599","street":"Kvítková 540","locality":"Zlín","id":217,"openingTime":[{"days":"Pondělí - Pátek","time":": 07:00 - 18:00","id":433},{"days":"Sobota - Neděle","time":": zavřeno ","id":434}]},{"name":"Penzion U Kotle","latitude":"50.740403","longitude":"15.555301","street":"Horní Mísečky 137","locality":"Horní Mísečky","id":218,"openingTime":[{"days":"Pondělí - Neděle","time":" ","id":435}]},{"name":"Vitalita - vegetariánská jídelna","latitude":"49.474423","longitude":"17.970145","street":"Svěráková 37","locality":"Valašské Meziříčí","id":219,"openingTime":[{"days":"Pondělí - Čtvrtek","time":": 07:30 - 17:00","id":436},{"days":"Pátek","time":": 07:30 - 16:00","id":437},{"days":"Sobota - Neděle","time":": zavřeno ","id":438}]},{"name":"Fusion Bistro - Jávanka","latitude":"50.072281","longitude":"14.442858","street":"Máchova 22","locality":"Praha 10","id":220,"openingTime":[{"days":"Pondělí - Pátek","time":": 11:00 - 21:00","id":439},{"days":"Sobota","time":": zavřeno ","id":440},{"days":"Neděle","time":": 12:00 - 20:00","id":441}]},{"name":"Veggie Point","latitude":"50.077495","longitude":"14.402429","street":"Drtinova 358/20","locality":"Praha 5","id":221,"openingTime":[{"days":"Pondělí - Sobota","time":": 11:00 - 19:00","id":442},{"days":"Neděle","time":": zavřeno ","id":443}]},{"name":"Sushihanil","latitude":"49.231944","longitude":"18.738851","street":"Kysucká cesta 8405/16C","locality":"Žilina","id":222,"openingTime":[{"days":"Pondělí - Neděle","time":": 11:00 - 22:00","id":444},{"days":"Sobota","time":": 11:00 - 23:00","id":445}]},{"name":"Habibi cafe","latitude":"49.224434","longitude":"18.741527","street":"Námestie Andreja Hlinku 7/B","locality":"Žilina","id":223,"openingTime":[{"days":"Neděle - Čtvrtek","time":": 09:00 - 21:00","id":446},{"days":"Pátek - Sobota","time":": 09:00 - 01:00","id":447}]},{"name":"Bamboo Restaurant","latitude":"48.724743","longitude":"21.255879","street":"Hlavná 78","locality":"Košice","id":224,"openingTime":[{"days":"Pondělí - Čtvrtek","time":": 10:30 - 22:00","id":448},{"days":"Pátek","time":": 10:30 - 23:00","id":449},{"days":"Sobota","time":": 12:00 - 23:00","id":450},{"days":"Neděle","time":": 12:00 - 21:00","id":451}]},{"name":"TILAK pizzerie","latitude":"49.142651","longitude":"17.209869","street":"Zámecká 208","locality":"Strílky","id":225,"openingTime":[{"days":"Pondělí - Neděle","time":": 11:30 - 21:30","id":452}]},{"name":"Pizzérie v Zámrskách","latitude":"49.509806","longitude":"17.832620","street":"Zámrsky 112","locality":"Hranice","id":226,"openingTime":[{"days":"Neděle","time":": 12:00 - 20:00","id":453},{"days":"Pondělí - Sobota","time":": zavřeno ","id":454}]},{"name":"Zelený strom","latitude":"50.766370","longitude":"15.057820","street":"Revoluční 131","locality":"Liberec","id":227,"openingTime":[{"days":"Pondělí - Čtvrtek","time":": 10:00 - 22:00","id":455},{"days":"Pátek","time":": 10:00 - 23:00","id":456},{"days":"Sobota","time":": 12:00 - 23:00","id":457},{"days":"Neděle","time":": zavřeno ","id":458}]},{"name":"Everest","latitude":"50.210416","longitude":"15.832408","street":"Špitálská 183","locality":"Hradec Králové","id":228,"openingTime":[{"days":"Pondělí - Sobota","time":": 11:00 - 22:00","id":459},{"days":"Neděle","time":": zavřeno ","id":460}]},{"name":"Pizza Caesar ","latitude":"48.116710","longitude":"17.109631","street":"Rovniankova 7","locality":"Bratislava","id":229,"openingTime":[{"days":"Pondělí - Čtvrtek","time":": 12:00 - 04:00","id":461},{"days":"Pátek","time":": 12:00 - 06:00","id":462},{"days":"Sobota","time":": 15:00 - 06:00","id":463},{"days":"Neděle","time":": 15:00 - 04:00","id":464}]},{"name":"Jiná Káva","latitude":"49.967994","longitude":"14.071281","street":"U Kasáren 192","locality":"Beroun","id":230,"openingTime":[{"days":"Pondělí","time":": 11:00 - 14:00","id":465},{"days":"Úterý - Pátek","time":": 11:00 - 22:00","id":466},{"days":"Sobota","time":": 12:00 - 22:00","id":467},{"days":"Neděle","time":": zavřeno ","id":468}]},{"name":"Café Na půl cesty","latitude":"50.049859","longitude":"14.431502","street":"Centrální park Pankrác","locality":"Praha 4","id":231,"openingTime":[{"days":"Pondělí - Neděle","time":": 12:00 - 23:00","id":469}]},{"name":"MyRaw Café","latitude":"50.090795","longitude":"14.426899","street":"Dlouhá 39","locality":"Praha 1","id":232,"openingTime":[{"days":"Pondělí - Pátek","time":": 09:00 - 22:00","id":470},{"days":"Sobota","time":": 11:00 - 21:00","id":471},{"days":"Neděle","time":": 11:00 - 18:00","id":472}]},{"name":"Kamenná čajovna","latitude":"49.744465","longitude":"13.376309","street":"Kopeckého sady 152/15","locality":"Plzeň","id":233,"openingTime":[{"days":"Pondělí - Pátek","time":": 12:00 - 22:00","id":473},{"days":"Sobota - Neděle","time":": 14:30 - 22:00","id":474}]},{"name":"Šambhala - vegetariánská jídelna","latitude":"50.684980","longitude":"14.539006","street":"Zámecká 53/19","locality":"Česká Lípa","id":234,"openingTime":[{"days":"Pondělí - Pátek","time":": 11:00 - 14:00","id":475},{"days":"Sobota - Neděle","time":": zavřeno ","id":476}]},{"name":"BonGusta","latitude":"49.839508","longitude":"18.284451","street":"Nádražní 112/50","locality":"Ostrava","id":235,"openingTime":[{"days":"Pondělí - Pátek","time":": 07:00 - 19:00","id":477},{"days":"Sobota","time":": 09:00 - 17:00","id":478},{"days":"Neděle","time":": zavřeno ","id":479}]},{"name":"Monty Jack","latitude":"49.826018","longitude":"18.190128","street":"Bulharská 1669/15","locality":"Ostrava-Poruba","id":236,"openingTime":[{"days":"Pondělí - Čtvrtek","time":": 11:00 - 00:00","id":480},{"days":"Pátek","time":": 11:00 - 02:00","id":481},{"days":"Sobota","time":": 14:00 - 02:00","id":482},{"days":"Neděle","time":": 14:00 - 00:00","id":483}]},{"name":"MacPizza &amp; Café","latitude":"48.979058","longitude":"14.477625","street":"Jírovcova 10","locality":"České Budějovice","id":237,"openingTime":[{"days":"Pondělí","time":": zavřeno ","id":484},{"days":"Úterý - Čtvrtek","time":": 10:30 - 22:00","id":485},{"days":"Pátek - Sobota","time":": 10:30 - 00:00","id":486},{"days":"Neděle","time":": 11:00 - 22:00","id":487}]},{"name":"Eukalyptus","latitude":"49.783702","longitude":"18.248045","street":"U Letiště 1344/4","locality":"Ostrava, Hrabůvka","id":238,"openingTime":[{"days":"Pondělí - Pátek","time":": 11:00 - 21:00","id":488}]},{"name":"Čajovna na dlani","latitude":"49.779797","longitude":"18.433749","street":"Dlouhá třída 468/13a","locality":"Havířov","id":239,"openingTime":[{"days":"Neděle - Čtvrtek","time":": 14:00 - 22:00","id":489},{"days":"Pátek - Sobota","time":": 14:00 - 23:00","id":490}]},{"name":"Cesmína Cafe","latitude":"50.074012","longitude":"14.458493","street":"Hradešínská 51","locality":"Praha 10","id":240,"openingTime":[{"days":"Pondělí - Neděle","time":": 10:00 - 18:00","id":491}]},{"name":"Sweet Secret of Raw ","latitude":"50.074295","longitude":"14.433556","street":"Rumunská 25","locality":"Praha 2","id":241,"openingTime":[{"days":"Pondělí - Pátek","time":": 08:00 - 21:00","id":492},{"days":"Sobota - Neděle","time":": 10:00 - 21:00","id":493}]},{"name":"Kavárna Nahoře","latitude":"50.099986","longitude":"14.397616","street":"Na Hutích 9","locality":"Praha 6","id":242,"openingTime":[{"days":"Pondělí - Čtvrtek","time":": 09:00 - 00:00","id":494},{"days":"Pátek","time":": 09:00 - 01:00","id":495},{"days":"Sobota - Neděle","time":": 14:00 - 00:00","id":496}]},{"name":"Retro","latitude":"50.074480","longitude":"14.437781","street":"Francouzská 75/4","locality":"Praha 2","id":243,"openingTime":[{"days":"Pondělí - Pátek","time":": 09:00 - 00:00","id":497},{"days":"Sobota","time":": 13:00 - 02:00","id":498},{"days":"Neděle","time":": 13:00 - 22:00","id":499}]},{"name":"Raw for you","latitude":"50.101444","longitude":"14.404481","street":"Bubenečská 35","locality":"Praha 6","id":244,"openingTime":[{"days":"Pondělí - Pátek","time":": 09:00 - 19:00","id":500},{"days":"Sobota - Neděle","time":": zavřeno ","id":501}]},{"name":"Govinda Delicious","latitude":"50.105247","longitude":"14.473923","street":"Na hrázi 5","locality":"Praha 8","id":245,"openingTime":[{"days":"Pondělí - Pátek","time":": 12:00 - 19:00","id":502}]},{"name":"Štajgrova kuchyň (Ostrava)","latitude":"49.829367","longitude":"18.276036","street":"Petra Křičky 18","locality":"Ostrava","id":246,"openingTime":[{"days":"Neděle - Čtvrtek","time":": 10:45 - 22:30","id":503},{"days":"Pátek - Sobota","time":": 10:45 - 23:30","id":504}]},{"name":"Štajgrova kuchyň (Bohumín)","latitude":"49.909526","longitude":"18.357601","street":"Šunychelská 1230","locality":"Nový Bohumín","id":247,"openingTime":[{"days":"Neděle - Čtvrtek","time":": 10:45 - 22:30","id":505},{"days":"Pátek - Sobota","time":": 10:45 - 23:30","id":506}]},{"name":"Bistro Kantýna","latitude":"49.747469","longitude":"13.371734","street":"Palackého 13","locality":"Plzeň 3","id":248,"openingTime":[{"days":"Pondělí - Pátek","time":": 10:00 - 16:00","id":507},{"days":"Sobota - Neděle","time":": zavřeno ","id":508}]},{"name":"Vietnam fast food","latitude":"50.104087","longitude":"14.473033","street":"Zenklova 13","locality":"Praha 8","id":249,"openingTime":[{"days":"Pondělí - Neděle","time":": 10:30 - 22:30","id":509}]},{"name":"Čajovna Dharmasala","latitude":"50.091159","longitude":"14.446958","street":"Peckova 296/15","locality":"Praha 8","id":250,"openingTime":[{"days":"Pondělí - Pátek","time":": 11:00 - 23:00","id":510},{"days":"Sobota - Neděle","time":": 17:00 - 23:00","id":511}]},{"name":"MIAM polívkárna &amp; bistro","latitude":"49.397632","longitude":"15.590164","street":"Křížová 11","locality":"Jihlava","id":251,"openingTime":[{"days":"Pondělí - Čtvrtek","time":": 11:00 - 19:00","id":512},{"days":"Pátek","time":": 11:00 - 16:00","id":513}]},{"name":"Vegeethouse","latitude":"50.436272","longitude":"15.357874","street":"Husova 110","locality":"Jičín","id":252,"openingTime":[{"days":"Pondělí - Čtvrtek","time":": 10:00 - 20:00","id":514},{"days":"Pátek - Sobota","time":": 10:00 - 22:00","id":515}]},{"name":"Green Spirit Bistro &amp; Cafe","latitude":"50.084581","longitude":"14.403993","street":"Hellichova 14","locality":"Praha 1","id":253,"openingTime":[{"days":"Pondělí - Neděle","time":": 10:00 - 20:00","id":516}]},{"name":"V Sushi Bar","latitude":"48.855700","longitude":"16.049729","street":"Kramářská 12","locality":"Znojmo","id":254,"openingTime":[{"days":"Pondělí - Pátek","time":": 09:30 - 17:30","id":517},{"days":"Sobota","time":": 10:00 - 14:00","id":518},{"days":"Neděle","time":": zavřeno ","id":519}]},{"name":"Masala Ghar (Slovany)","latitude":"49.738019","longitude":"13.388524","street":"Radyňská 14","locality":"Plzeň 2","id":255,"openingTime":[{"days":"Pondělí - Pátek","time":": 10:00 - 22:00","id":520},{"days":"Sobota","time":": 12:00 - 22:00","id":521},{"days":"Neděle","time":": zavřeno ","id":522}]},{"name":"Motorest Pri starom mlyne","latitude":"48.665770","longitude":"21.329180","street":"Ukrajinská 54","locality":"Krásna nad Hornádom","id":256,"openingTime":[{"days":"Pondělí - Neděle","time":": 11:00 - 22:00","id":523}]},{"name":"Restaurace Klíček","latitude":"50.143835","longitude":"15.115319","street":"Husova 62/22","locality":"Poděbrady","id":257,"openingTime":[{"days":"Pondělí - Pátek","time":": 10:00 - 15:00","id":524},{"days":"Sobota - Neděle","time":": zavřeno ","id":525}]},{"name":"La Karotka","latitude":"50.534581","longitude":"14.135302","street":"Velká Dominikánská 99/17","locality":"Litoměřice","id":258,"openingTime":[{"days":"Pondělí - Čtvrtek","time":": 10:30 - 20:00","id":526},{"days":"Pátek - Sobota","time":": 10:30 - 22:00","id":527},{"days":"Neděle","time":": zavřeno ","id":528}]},{"name":"Sahib","latitude":"48.211250","longitude":"19.349290","street":"Nemocničná 755/2","locality":"Veľký Krtíš","id":259,"openingTime":[{"days":"Pondělí - Čtvrtek","time":": 10:00 - 22:00","id":529},{"days":"Pátek","time":": 10:00 - 00:00","id":530},{"days":"Sobota","time":": 12:00 - 00:00","id":531},{"days":"Neděle","time":": 12:00 - 22:00","id":532}]},{"name":"Cantina Pizza","latitude":"48.855023","longitude":"16.051074","street":"Dolní Česká 348/22","locality":"Znojmo","id":260,"openingTime":[{"days":"Pondělí - Čtvrtek","time":": 10:00 - 22:00","id":533},{"days":"Pátek","time":": 10:00 - 02:00","id":534},{"days":"Sobota","time":": 17:00 - 02:00","id":535},{"days":"Neděle","time":": 17:00 - 22:00","id":536}]},{"name":"Pizzerie La Strada 1","latitude":"49.225226","longitude":"17.680858","street":"třída Tomáše Bati 5359","locality":"Zlín","id":261,"openingTime":[{"days":"Neděle - Čtvrtek","time":": 11:00 - 23:00","id":537},{"days":"Pátek - Sobota","time":": 11:00 - 00:00","id":538}]}]